title,typeid,name,description,icon_color,long,lat,url,thumb_url,주소,image_url,fctyCd,gvmtCd
하동화력발전소,1,하동화력발전소,하동화력발전소,R,126.7882,34.9549,http://10.32.28.204:8001/img/common/ico_map11.png,http://10.32.28.204:8001/img/common/ico_map11.png,경남 하동군금성면가덕리310,http://10.32.28.204:8001/img/common/ico_map11.png,HD,NP
영월화력발전소,2,영월화력발전소,영월화력발전소,R,128.4909,37.2011,http://10.32.28.204:8001/img/common/ico_map11.png,http://10.32.28.204:8001/img/common/ico_map11.png,강원도 영열군영월읍정양리,http://10.32.28.204:8001/img/common/ico_map11.png,YW,NP
영동화력발전소,3,영동화력발전소,영동화력발전소,R,128.9817,37.7385,http://10.32.28.204:8001/img/common/ico_map11.png,http://10.32.28.204:8001/img/common/ico_map11.png,강원도 강릉시강동면대동리200,http://10.32.28.204:8001/img/common/ico_map11.png,YD,EN
통영시청,4,통영시청,통영시청,R,128.433,34.854,http://10.32.28.204:8001/img/common/ico_map01.png,http://10.32.28.204:8001/img/common/ico_map01.png,경남 통영시통영해안로515(무전동357),http://10.32.28.204:8001/img/common/ico_map01.png,TY,GN
청주시청,5,청주시청,청주시청,R,127.29,36.38,http://10.32.28.204:8001/img/common/ico_map01.png,http://10.32.28.204:8001/img/common/ico_map01.png,충북 청주시상당구상당로155,http://10.32.28.204:8001/img/common/ico_map01.png,CJ,CP
교원대학교,6,교원대학교,교원대학교,R,127.358,36.6135,http://10.32.28.204:8001/img/common/ico_map02.png,http://10.32.28.204:8001/img/common/ico_map02.png,충북 청원군감내면 태성탑연로 250,http://10.32.28.204:8001/img/common/ico_map02.png,KU,AC
한전원전연료(주),7,한전원전연료(주),한전원전연료(주),R,127.223868,36.256908,http://10.32.28.204:8001/img/common/ico_map09.png,http://10.32.28.204:8001/img/common/ico_map09.png,대전광역시 유성구대덕대로989번길242(대진동),http://10.32.28.204:8001/img/common/ico_map09.png,NA,NF
한전원전연료(주),8,한전원전연료(주),한전원전연료(주),R,127.223868,36.256908,http://10.32.28.204:8001/img/common/ico_map09.png,http://10.32.28.204:8001/img/common/ico_map09.png,대전광역시 유성구대덕대로989번길242(대진동),http://10.32.28.204:8001/img/common/ico_map09.png,NB,NF
한전원전연료(주),9,한전원전연료(주),한전원전연료(주),R,127.223868,36.256908,http://10.32.28.204:8001/img/common/ico_map09.png,http://10.32.28.204:8001/img/common/ico_map09.png,대전광역시 유성구대덕대로989번길242(대진동),http://10.32.28.204:8001/img/common/ico_map09.png,NG,NF
강남구청,10,강남구청,강남구청,R,127.047381,37.517292,http://10.32.28.204:8001/img/common/ico_map01.png,http://10.32.28.204:8001/img/common/ico_map01.png,서울특별시 강남구서울시강남구삼성동16-1,http://10.32.28.204:8001/img/common/ico_map01.png,GN,SL
의왕시(청),11,의왕시(청),의왕시(청),R,126.96,37.34,http://10.32.28.204:8001/img/common/ico_map01.png,http://10.32.28.204:8001/img/common/ico_map01.png,경기도 의왕시고천동171,http://10.32.28.204:8001/img/common/ico_map01.png,UW,GK
강원대학교삼척캠퍼스,12,강원대학교삼척캠퍼스,강원대학교삼척캠퍼스,R,129.161866,37.452216,http://10.32.28.204:8001/img/common/ico_map02.png,http://10.32.28.204:8001/img/common/ico_map02.png,강원도 삼척시중앙로346,http://10.32.28.204:8001/img/common/ico_map02.png,KS,AC
전남대광주,13,전남대광주,전남대광주,R,126.9,35.17,http://10.32.28.204:8001/img/common/ico_map02.png,http://10.32.28.204:8001/img/common/ico_map02.png,광주광역시 북구용봉로,http://10.32.28.204:8001/img/common/ico_map02.png,BG,AC
경기도청사,14,경기도청사,경기도청사,R,127,37.27,http://10.32.28.204:8001/img/common/ico_map01.png,http://10.32.28.204:8001/img/common/ico_map01.png,경기도 수원시팔달구매산로3가1,http://10.32.28.204:8001/img/common/ico_map01.png,GG,GK
괴산군청,15,괴산군청,괴산군청,R,127.7866,36.8153,http://10.32.28.204:8001/img/common/ico_map01.png,http://10.32.28.204:8001/img/common/ico_map01.png,충북 괴산군괴산읍서부리125,http://10.32.28.204:8001/img/common/ico_map01.png,GS,CP
광명시청,16,광명시청,광명시청,R,126.86455,37.478536,http://10.32.28.204:8001/img/common/ico_map01.png,http://10.32.28.204:8001/img/common/ico_map01.png,경기도 광명시철산3동222-1,http://10.32.28.204:8001/img/common/ico_map01.png,GM,GK
구리시청,17,구리시청,구리시청,R,127.1295,37.5943,http://10.32.28.204:8001/img/common/ico_map01.png,http://10.32.28.204:8001/img/common/ico_map01.png,경기도 구리시교문동390-1,http://10.32.28.204:8001/img/common/ico_map01.png,GR,GK
안산시청,18,안산시청,안산시청,R,126.8308,37.3218,http://10.32.28.204:8001/img/common/ico_map01.png,http://10.32.28.204:8001/img/common/ico_map01.png,경기도 안산시단원구고잔동515,http://10.32.28.204:8001/img/common/ico_map01.png,DW,GK
시흥시청,19,시흥시청,시흥시청,R,126.802821,37.38003,http://10.32.28.204:8001/img/common/ico_map01.png,http://10.32.28.204:8001/img/common/ico_map01.png,경기도 시흥시장현동 300,http://10.32.28.204:8001/img/common/ico_map01.png,SH,GK
임실군청,20,임실군청,임실군청,R,127.28,35.61,http://10.32.28.204:8001/img/common/ico_map01.png,http://10.32.28.204:8001/img/common/ico_map01.png,전북 임실군임실읍이도리78,http://10.32.28.204:8001/img/common/ico_map01.png,IS,JP
거창군청,21,거창군청,거창군청,R,127.909516,36.686723,http://10.32.28.204:8001/img/common/ico_map01.png,http://10.32.28.204:8001/img/common/ico_map01.png,경남 거창군거창읍상림리(중앙로103),http://10.32.28.204:8001/img/common/ico_map01.png,GC,GN
거제시청,22,거제시청,거제시청,R,128.433,34.854,http://10.32.28.204:8001/img/common/ico_map01.png,http://10.32.28.204:8001/img/common/ico_map01.png,경남 거제시계룡로125,http://10.32.28.204:8001/img/common/ico_map01.png,GJ,GN
과천시청,23,과천시청,과천시청,R,126.98,37.44,http://10.32.28.204:8001/img/common/ico_map01.png,http://10.32.28.204:8001/img/common/ico_map01.png,경기도 과천시중앙동,http://10.32.28.204:8001/img/common/ico_map01.png,GC,GK
군포시청,24,군포시청,군포시청,R,126.935175,37.361662,http://10.32.28.204:8001/img/common/ico_map01.png,http://10.32.28.204:8001/img/common/ico_map01.png,경기도 군포시금정동844,http://10.32.28.204:8001/img/common/ico_map01.png,GU,GK
안성시청,25,안성시청,안성시청,R,127.279817,37.008025,http://10.32.28.204:8001/img/common/ico_map01.png,http://10.32.28.204:8001/img/common/ico_map01.png,경기도 안성시봉산동 705-19,http://10.32.28.204:8001/img/common/ico_map01.png,AS,GK
관악구청,26,관악구청,관악구청,R,126.9508,37.4787,http://10.32.28.204:8001/img/common/ico_map01.png,http://10.32.28.204:8001/img/common/ico_map01.png,서울특별시 관악구봉천동1570-1,http://10.32.28.204:8001/img/common/ico_map01.png,GW,SL
가평군청,27,가평군청,가평군청,R,127.5095,37.8312,http://10.32.28.204:8001/img/common/ico_map01.png,http://10.32.28.204:8001/img/common/ico_map01.png,경기도 가평군가평읍읍내리513,http://10.32.28.204:8001/img/common/ico_map01.png,GA,GK
양천군청 (존재하지 않음),28,양천군청 (존재하지 않음),양천군청 (존재하지 않음),R,126.8663,37.5168,http://10.32.28.204:8001/img/common/ico_map01.png,http://10.32.28.204:8001/img/common/ico_map01.png,인제읍인제로197번길8,http://10.32.28.204:8001/img/common/ico_map01.png,YC,SL
과천청사,29,과천청사,과천청사,R,126.98,37.42,http://10.32.28.204:8001/img/common/ico_map01.png,http://10.32.28.204:8001/img/common/ico_map01.png,경기도 과천시중앙동,http://10.32.28.204:8001/img/common/ico_map01.png,GC,GR
하남시청,30,하남시청,하남시청,R,127.2149,37.5393,http://10.32.28.204:8001/img/common/ico_map01.png,http://10.32.28.204:8001/img/common/ico_map01.png,경기도 하남시신장동 520,http://10.32.28.204:8001/img/common/ico_map01.png,HN,GK
동두천시청,31,동두천시청,동두천시청,R,127.06,37.9,http://10.32.28.204:8001/img/common/ico_map01.png,http://10.32.28.204:8001/img/common/ico_map01.png,경기도 동두천시 생연동 457,http://10.32.28.204:8001/img/common/ico_map01.png,DC,GK
연천군청,32,연천군청,연천군청,R,127.074973,38.096377,http://10.32.28.204:8001/img/common/ico_map01.png,http://10.32.28.204:8001/img/common/ico_map01.png,경기도 연천군연천읍연천로220,http://10.32.28.204:8001/img/common/ico_map01.png,YC,GK
전남대여수캠퍼스,33,전남대여수캠퍼스,전남대여수캠퍼스,R,127.69,34.77,http://10.32.28.204:8001/img/common/ico_map01.png,http://10.32.28.204:8001/img/common/ico_map01.png,전남 여수시전남대여수캠퍼스학생로50,http://10.32.28.204:8001/img/common/ico_map01.png,YS,AC
한국과학기술원,34,한국과학기술원,한국과학기술원,R,127.045603,37.593011,http://10.32.28.204:8001/img/common/ico_map02.png,http://10.32.28.204:8001/img/common/ico_map02.png,서울특별시 동대문구청량리동 207-43,http://10.32.28.204:8001/img/common/ico_map02.png,DM,AC
장수군청,35,장수군청,장수군청,R,127.311634,35.385032,http://10.32.28.204:8001/img/common/ico_map01.png,http://10.32.28.204:8001/img/common/ico_map01.png,전북 장수군장수읍 장수리 176-7,http://10.32.28.204:8001/img/common/ico_map01.png,JS,JP
제주화력발전소,36,제주화력발전소,제주화력발전소,R,126.59,33.53,http://10.32.28.204:8001/img/common/ico_map11.png,http://10.32.28.204:8001/img/common/ico_map11.png,제주도 제주시삼양 1동 900,http://10.32.28.204:8001/img/common/ico_map11.png,JF,JE
한밭대학교,37,한밭대학교,한밭대학교,R,127.3,36.35,http://10.32.28.204:8001/img/common/ico_map02.png,http://10.32.28.204:8001/img/common/ico_map02.png,대전광역시 유성구동서대로 125,http://10.32.28.204:8001/img/common/ico_map02.png,HB,AC
평택시청,38,평택시청,평택시청,R,127.1126,36.9923,http://10.32.28.204:8001/img/common/ico_map01.png,http://10.32.28.204:8001/img/common/ico_map01.png,경기도 평택시비전동846(경기대로245),http://10.32.28.204:8001/img/common/ico_map01.png,PT,GK
증평군청,39,증평군청,증평군청,R,127.581416,36.7847166,http://10.32.28.204:8001/img/common/ico_map01.png,http://10.32.28.204:8001/img/common/ico_map01.png,충북 증평군증평읍광장로 88,http://10.32.28.204:8001/img/common/ico_map01.png,JP,CP
남동구청,40,남동구청,남동구청,R,126.7315333,37.44721944,http://10.32.28.204:8001/img/common/ico_map01.png,http://10.32.28.204:8001/img/common/ico_map01.png,인천광역시 남동구만수동 1008,http://10.32.28.204:8001/img/common/ico_map01.png,ND,IC
서울과학기술대학교,41,서울과학기술대학교,서울과학기술대학교,R,127.075292,37.634289,http://10.32.28.204:8001/img/common/ico_map02.png,http://10.32.28.204:8001/img/common/ico_map02.png,서울특별시 노원구공릉로232,http://10.32.28.204:8001/img/common/ico_map02.png,SL,AC
포천시청,42,포천시청,포천시청,R,127.2,37.894,http://10.32.28.204:8001/img/common/ico_map01.png,http://10.32.28.204:8001/img/common/ico_map01.png,경기도 포천시신읍동58-2,http://10.32.28.204:8001/img/common/ico_map01.png,PC,GK
목포대학교,43,목포대학교,목포대학교,R,126.26,34.54,http://10.32.28.204:8001/img/common/ico_map02.png,http://10.32.28.204:8001/img/common/ico_map02.png,전남 무안군청계면영산로1666,http://10.32.28.204:8001/img/common/ico_map02.png,MA,AC
부산대학교,44,부산대학교,부산대학교,R,129.077,35.235822,http://10.32.28.204:8001/img/common/ico_map02.png,http://10.32.28.204:8001/img/common/ico_map02.png,부산광역시 금정구부산대학로63번길2,http://10.32.28.204:8001/img/common/ico_map02.png,PS,AC
중구청,45,중구청,중구청,R,126.9975,37.5637,http://10.32.28.204:8001/img/common/ico_map01.png,http://10.32.28.204:8001/img/common/ico_map01.png,서울특별시 중구창경궁로17,http://10.32.28.204:8001/img/common/ico_map01.png,JG,SL
강화군청,46,강화군청,강화군청,R,126.4833,37.7474,http://10.32.28.204:8001/img/common/ico_map01.png,http://10.32.28.204:8001/img/common/ico_map01.png,인천광역시 강화군강화읍 관청리 163,http://10.32.28.204:8001/img/common/ico_map01.png,SH,IC
충남대학교,47,충남대학교,충남대학교,R,127.344122,36.368517,http://10.32.28.204:8001/img/common/ico_map02.png,http://10.32.28.204:8001/img/common/ico_map02.png,대전광역시 유성구궁동 220,http://10.32.28.204:8001/img/common/ico_map02.png,CU,AC
진천군청,48,진천군청,진천군청,R,127.435796,36.855385,http://10.32.28.204:8001/img/common/ico_map01.png,http://10.32.28.204:8001/img/common/ico_map01.png,충북 진천군진천읍상산로13,http://10.32.28.204:8001/img/common/ico_map01.png,GC,CP
세종열병합발전소,49,세종열병합발전소,세종열병합발전소,R,128.256944,36.477222,http://10.32.28.204:8001/img/common/ico_map11.png,http://10.32.28.204:8001/img/common/ico_map11.png,세종시가람동512-2,http://10.32.28.204:8001/img/common/ico_map11.png,SJ,JE
여주시청,50,여주시청,여주시청,R,127.637342,37.298283,http://10.32.28.204:8001/img/common/ico_map01.png,http://10.32.28.204:8001/img/common/ico_map01.png,경기도 여주시세종로1,http://10.32.28.204:8001/img/common/ico_map01.png,YE,GK
청주공항,51,청주공항,청주공항,R,127.498333,36.724167,http://10.32.28.204:8001/img/common/ico_map04.png,http://10.32.28.204:8001/img/common/ico_map04.png,충북 청원군입산리산5-1번지,http://10.32.28.204:8001/img/common/ico_map04.png,CW,KA
대구공항,52,대구공항,대구공항,R,128.636389,35.900278,http://10.32.28.204:8001/img/common/ico_map04.png,http://10.32.28.204:8001/img/common/ico_map04.png,대구광역시 동구공항로221,http://10.32.28.204:8001/img/common/ico_map04.png,DG,KA
김포공항관제탑,53,김포공항관제탑,김포공항관제탑,R,126.7975,37.563055,http://10.32.28.204:8001/img/common/ico_map04.png,http://10.32.28.204:8001/img/common/ico_map04.png,서울특별시 강서구공항동150,http://10.32.28.204:8001/img/common/ico_map04.png,GC,KA
광주공항,54,광주공항,광주공항,R,126.810278,35.139444,http://10.32.28.204:8001/img/common/ico_map04.png,http://10.32.28.204:8001/img/common/ico_map04.png,광주광역시 광산구신촌동704-13,http://10.32.28.204:8001/img/common/ico_map04.png,GJ,KA
김포공항,55,김포공항,김포공항,R,126.7975,37.563055,http://10.32.28.204:8001/img/common/ico_map04.png,http://10.32.28.204:8001/img/common/ico_map04.png,서울특별시 강서구공항동150,http://10.32.28.204:8001/img/common/ico_map04.png,GP,KA
제주공항관제탑,56,제주공항관제탑,제주공항관제탑,R,126.491111,33.505833,http://10.32.28.204:8001/img/common/ico_map04.png,http://10.32.28.204:8001/img/common/ico_map04.png,제주도 제주시공항로2,http://10.32.28.204:8001/img/common/ico_map04.png,JC,KA
제주공항,57,제주공항,제주공항,R,126.491111,33.505833,http://10.32.28.204:8001/img/common/ico_map04.png,http://10.32.28.204:8001/img/common/ico_map04.png,제주도 제주시공항로2,http://10.32.28.204:8001/img/common/ico_map04.png,JJ,KA
무안공항,58,무안공항,무안공항,R,126.3875,34.991111,http://10.32.28.204:8001/img/common/ico_map04.png,http://10.32.28.204:8001/img/common/ico_map04.png,전남 무안군망운면피서리781-6,http://10.32.28.204:8001/img/common/ico_map04.png,MA,KA
무안공항관제탑,59,무안공항관제탑,무안공항관제탑,R,126.3875,34.991111,http://10.32.28.204:8001/img/common/ico_map04.png,http://10.32.28.204:8001/img/common/ico_map04.png,전남 무안군망운면피서리781-6,http://10.32.28.204:8001/img/common/ico_map04.png,MC,KA
포항공항,60,포항공항,포항공항,R,129.432917,35.983889,http://10.32.28.204:8001/img/common/ico_map04.png,http://10.32.28.204:8001/img/common/ico_map04.png,경북 포항시남구 동해면 도구리 402-1,http://10.32.28.204:8001/img/common/ico_map04.png,PH,KA
김해공항,61,김해공항,김해공항,R,128.948056,35.173056,http://10.32.28.204:8001/img/common/ico_map04.png,http://10.32.28.204:8001/img/common/ico_map04.png,부산광역시 강서구대저2동 2350,http://10.32.28.204:8001/img/common/ico_map04.png,PS,KA
울산공항관제탑,62,울산공항관제탑,울산공항관제탑,R,129.355833,35.592361,http://10.32.28.204:8001/img/common/ico_map04.png,http://10.32.28.204:8001/img/common/ico_map04.png,울산광역시 북구산업로1103,http://10.32.28.204:8001/img/common/ico_map04.png,UC,KA
울산공항,63,울산공항,울산공항,R,129.355833,35.592361,http://10.32.28.204:8001/img/common/ico_map04.png,http://10.32.28.204:8001/img/common/ico_map04.png,울산광역시 북구산업로1103,http://10.32.28.204:8001/img/common/ico_map04.png,US,KA
여수공항관제탑,64,여수공항관제탑,여수공항관제탑,R,127.612639,34.8425,http://10.32.28.204:8001/img/common/ico_map04.png,http://10.32.28.204:8001/img/common/ico_map04.png,전남 여수시율촌면여순로386,http://10.32.28.204:8001/img/common/ico_map04.png,YC,KA
여수지사,65,여수지사,여수지사,R,127.77285,34.845,http://10.32.28.204:8001/img/common/ico_map12.png,http://10.32.28.204:8001/img/common/ico_map12.png,전남 여수시낙포동1157,http://10.32.28.204:8001/img/common/ico_map12.png,YO,OL
양평군청,66,양평군청,양평군청,R,127.4876,37.4917,http://10.32.28.204:8001/img/common/ico_map01.png,http://10.32.28.204:8001/img/common/ico_map01.png,경기도 양평군양평읍군청앞길2,http://10.32.28.204:8001/img/common/ico_map01.png,YP,GK
여수공항,67,여수공항,여수공항,R,127.612639,34.8425,http://10.32.28.204:8001/img/common/ico_map04.png,http://10.32.28.204:8001/img/common/ico_map04.png,전남 여수시율촌면여순로386,http://10.32.28.204:8001/img/common/ico_map04.png,YS,KA
양양공항관제탑,68,양양공항관제탑,양양공항관제탑,R,128.662944,38.05911,http://10.32.28.204:8001/img/common/ico_map04.png,http://10.32.28.204:8001/img/common/ico_map04.png,강원도 양양군손양면동호리산281-1,http://10.32.28.204:8001/img/common/ico_map04.png,YT,KA
양양공항,69,양양공항,양양공항,R,128.662944,38.05911,http://10.32.28.204:8001/img/common/ico_map04.png,http://10.32.28.204:8001/img/common/ico_map04.png,강원도 양양군손양면동호리산281-1,http://10.32.28.204:8001/img/common/ico_map04.png,YY,KA
음성군청,70,음성군청,음성군청,R,127.690522,36.94,http://10.32.28.204:8001/img/common/ico_map01.png,http://10.32.28.204:8001/img/common/ico_map01.png,충북 음성군음성읍중앙로173,http://10.32.28.204:8001/img/common/ico_map01.png,ES,CP
태안화력발전소,71,태안화력발전소,태안화력발전소,R,126.236,36.905,http://10.32.28.204:8001/img/common/ico_map11.png,http://10.32.28.204:8001/img/common/ico_map11.png,충청남도 태안군674,http://10.32.28.204:8001/img/common/ico_map11.png,TH,WP
동해화력발전소,72,동해화력발전소,동해화력발전소,R,129.08,37.29,http://10.32.28.204:8001/img/common/ico_map11.png,http://10.32.28.204:8001/img/common/ico_map11.png,강원도 동해시구호동 241,http://10.32.28.204:8001/img/common/ico_map11.png,TF,EW
일산복합화력발전소,73,일산복합화력발전소,일산복합화력발전소,R,126.7978,37.6474,http://10.32.28.204:8001/img/common/ico_map11.png,http://10.32.28.204:8001/img/common/ico_map11.png,경기도 일산시백석동1143-1,http://10.32.28.204:8001/img/common/ico_map11.png,IC,EW
서천화력발전소,74,서천화력발전소,서천화력발전소,R,126.495,36.136,http://10.32.28.204:8001/img/common/ico_map11.png,http://10.32.28.204:8001/img/common/ico_map11.png,전라북도 군산시275-5,http://10.32.28.204:8001/img/common/ico_map11.png,SF,JE
평택화력발전소,75,평택화력발전소,평택화력발전소,R,126.796,37.003,http://10.32.28.204:8001/img/common/ico_map11.png,http://10.32.28.204:8001/img/common/ico_map11.png,경기도 평택시산1-21,http://10.32.28.204:8001/img/common/ico_map11.png,PY,WP
서인천화력발전소,76,서인천화력발전소,서인천화력발전소,R,126.601,37.536,http://10.32.28.204:8001/img/common/ico_map11.png,http://10.32.28.204:8001/img/common/ico_map11.png,인천시 서구경서동 674-13,http://10.32.28.204:8001/img/common/ico_map11.png,IF,WP
인천화력발전소,77,인천화력발전소,인천화력발전소,R,126.609,37.51,http://10.32.28.204:8001/img/common/ico_map11.png,http://10.32.28.204:8001/img/common/ico_map11.png,인천시 서구경서동 674-13,http://10.32.28.204:8001/img/common/ico_map11.png,IN,JE
울산복합화력발전소(),78,울산복합화력발전소(),울산복합화력발전소(),R,129.381,35.476,http://10.32.28.204:8001/img/common/ico_map11.png,http://10.32.28.204:8001/img/common/ico_map11.png,울산광역시 북구1,http://10.32.28.204:8001/img/common/ico_map11.png,UN,EW
군산화력발전소,79,군산화력발전소,군산화력발전소,R,126.73,35.98,http://10.32.28.204:8001/img/common/ico_map11.png,http://10.32.28.204:8001/img/common/ico_map11.png,전북 군산시690-2,http://10.32.28.204:8001/img/common/ico_map11.png,KC,WP
남제주화력발전소,80,남제주화력발전소,남제주화력발전소,R,126.3409,33.2372,http://10.32.28.204:8001/img/common/ico_map11.png,http://10.32.28.204:8001/img/common/ico_map11.png,제주도 서귀표시안덕면화순리610,http://10.32.28.204:8001/img/common/ico_map11.png,NJ,NP
원주(시청),81,원주(시청),원주(시청),R,127.893855,37.374333,http://10.32.28.204:8001/img/common/ico_map07.png,http://10.32.28.204:8001/img/common/ico_map07.png,강원도 원주시무실동 1,http://10.32.28.204:8001/img/common/ico_map07.png,WO,GS
석유공사구리지사,82,석유공사구리지사,석유공사구리지사,R,127.06,37.34,http://10.32.28.204:8001/img/common/ico_map07.png,http://10.32.28.204:8001/img/common/ico_map07.png,경기도 구리시아천동 297 구리지사통제실,http://10.32.28.204:8001/img/common/ico_map07.png,GR,OL
서해대교관리소,83,서해대교관리소,서해대교관리소,R,126.807311,36.940644,http://10.32.28.204:8001/img/common/ico_map06.png,http://10.32.28.204:8001/img/common/ico_map06.png,충남 당진시신평면매산리515,http://10.32.28.204:8001/img/common/ico_map06.png,SH,EX
충북도도청,84,충북도도청,충북도도청,R,127.49,36.63,http://10.32.28.204:8001/img/common/ico_map01.png,http://10.32.28.204:8001/img/common/ico_map01.png,충북 청주시상당구문화동89,http://10.32.28.204:8001/img/common/ico_map01.png,CD,CP
강원대학교,85,강원대학교,강원대학교,R,127.743386,37.869984,http://10.32.28.204:8001/img/common/ico_map02.png,http://10.32.28.204:8001/img/common/ico_map02.png,강원도 춘천시효자 2동 192-1,http://10.32.28.204:8001/img/common/ico_map02.png,GW,AC
영동군청,86,영동군청,영동군청,R,127.783416,36.1750194,http://10.32.28.204:8001/img/common/ico_map01.png,http://10.32.28.204:8001/img/common/ico_map01.png,충북 영동군영동읍계산리210-1,http://10.32.28.204:8001/img/common/ico_map01.png,YD,CP
안양시청,87,안양시청,안양시청,R,126.9565,37.394065,http://10.32.28.204:8001/img/common/ico_map01.png,http://10.32.28.204:8001/img/common/ico_map01.png,경기도 안양시동안구시민대로235,http://10.32.28.204:8001/img/common/ico_map01.png,AY,GK
강원대학교도계캠퍼스,88,강원대학교도계캠퍼스,강원대학교도계캠퍼스,R,129.09694,37.22415,http://10.32.28.204:8001/img/common/ico_map02.png,http://10.32.28.204:8001/img/common/ico_map02.png,강원도 삼척시도계읍황조길346,http://10.32.28.204:8001/img/common/ico_map02.png,DK,AC
청원군청,89,청원군청,청원군청,R,127.488522,36.63540556,http://10.32.28.204:8001/img/common/ico_map01.png,http://10.32.28.204:8001/img/common/ico_map01.png,충북 청주시상당구북문로1가171-3,http://10.32.28.204:8001/img/common/ico_map01.png,CW,CP
청주교육대학교,90,청주교육대학교,청주교육대학교,R,127.29,36.36,http://10.32.28.204:8001/img/common/ico_map01.png,http://10.32.28.204:8001/img/common/ico_map01.png,충북 청주시흥덕구청남로2065,http://10.32.28.204:8001/img/common/ico_map01.png,CE,AC
평창군청,91,평창군청,평창군청,R,128.390005,37.370862,http://10.32.28.204:8001/img/common/ico_map01.png,http://10.32.28.204:8001/img/common/ico_map01.png,강원도 평창군평창읍 하리 210-2,http://10.32.28.204:8001/img/common/ico_map01.png,PC,GW
진주시청,92,진주시청,진주시청,R,128.1084,35.1802,http://10.32.28.204:8001/img/common/ico_map01.png,http://10.32.28.204:8001/img/common/ico_map01.png,경남 진주시상대동284,http://10.32.28.204:8001/img/common/ico_map01.png,JJ,GN
함양군청,93,함양군청,함양군청,R,127.4353,35.31248,http://10.32.28.204:8001/img/common/ico_map01.png,http://10.32.28.204:8001/img/common/ico_map01.png,경남 함양군함양읍고운로35,http://10.32.28.204:8001/img/common/ico_map01.png,HY,GN
행주대교,94,행주대교,행주대교,R,126.8098,37.5979,http://10.32.28.204:8001/img/common/ico_map01.png,http://10.32.28.204:8001/img/common/ico_map01.png,서울특별시 강서구방화동행주대교,http://10.32.28.204:8001/img/common/ico_map01.png,HJ,SL
올림픽대교,95,올림픽대교,올림픽대교,R,127.1038,37.5339,http://10.32.28.204:8001/img/common/ico_map01.png,http://10.32.28.204:8001/img/common/ico_map01.png,서울특별시 광진구구의동올림픽대교,http://10.32.28.204:8001/img/common/ico_map01.png,OP,SL
인천소방안전본부,96,인천소방안전본부,인천소방안전본부,R,126.669,37.4481,http://10.32.28.204:8001/img/common/ico_map01.png,http://10.32.28.204:8001/img/common/ico_map01.png,인천광역시 남구인하로190,http://10.32.28.204:8001/img/common/ico_map01.png,IF,IC
이천시청,97,이천시청,이천시청,R,127.435,37.2724,http://10.32.28.204:8001/img/common/ico_map01.png,http://10.32.28.204:8001/img/common/ico_map01.png,경기도 이천시중리동 490,http://10.32.28.204:8001/img/common/ico_map01.png,IC,GK
금천구청,98,금천구청,금천구청,R,126.8955,37.457,http://10.32.28.204:8001/img/common/ico_map01.png,http://10.32.28.204:8001/img/common/ico_map01.png,서울특별시 금천구시흥동 1020,http://10.32.28.204:8001/img/common/ico_map01.png,GC,SL
당진화력발전소,99,당진화력발전소,당진화력발전소,R,126.513,37.053,http://10.32.28.204:8001/img/common/ico_map11.png,http://10.32.28.204:8001/img/common/ico_map11.png,충남 당진시974,http://10.32.28.204:8001/img/common/ico_map11.png,DF,EW
분당복합화력,100,분당복합화력,분당복합화력,R,127.1486,37.3641,http://10.32.28.204:8001/img/common/ico_map11.png,http://10.32.28.204:8001/img/common/ico_map11.png,경기도 성남시분당구 분당동 186,http://10.32.28.204:8001/img/common/ico_map11.png,BC,EN
부산복합화력발전소,101,부산복합화력발전소,부산복합화력발전소,R,129.0003,35.0855,http://10.32.28.204:8001/img/common/ico_map11.png,http://10.32.28.204:8001/img/common/ico_map11.png,부산광역시 사하구감천1동,http://10.32.28.204:8001/img/common/ico_map11.png,PC,NP
영흥화력발전소,102,영흥화력발전소,영흥화력발전소,R,126.4352,37.2372,http://10.32.28.204:8001/img/common/ico_map11.png,http://10.32.28.204:8001/img/common/ico_map11.png,인천광역시 옹진군영흥면 외리 산368,http://10.32.28.204:8001/img/common/ico_map11.png,YF,EN
삼천포화력,103,삼천포화력,삼천포화력,R,128.1094,34.9122,http://10.32.28.204:8001/img/common/ico_map11.png,http://10.32.28.204:8001/img/common/ico_map11.png,경남 사천시하이면덕호리952,http://10.32.28.204:8001/img/common/ico_map11.png,SC,EN
호남화력발전소,104,호남화력발전소,호남화력발전소,R,127.7343,34.8532,http://10.32.28.204:8001/img/common/ico_map11.png,http://10.32.28.204:8001/img/common/ico_map11.png,전남 여수시월내동280,http://10.32.28.204:8001/img/common/ico_map11.png,HN,EW
여수화력발전소,105,여수화력발전소,여수화력발전소,R,127.6914,34.8394,http://10.32.28.204:8001/img/common/ico_map11.png,http://10.32.28.204:8001/img/common/ico_map11.png,전남 여수시중흥동1300,http://10.32.28.204:8001/img/common/ico_map11.png,YS,EN
보령화력발전소,106,보령화력발전소,보령화력발전소,R,126.49,36.4,http://10.32.28.204:8001/img/common/ico_map11.png,http://10.32.28.204:8001/img/common/ico_map11.png,충남 보령시산212,http://10.32.28.204:8001/img/common/ico_map11.png,BF,JE
석유공사용인지사,107,석유공사용인지사,석유공사용인지사,R,127.16,37.1,http://10.32.28.204:8001/img/common/ico_map07.png,http://10.32.28.204:8001/img/common/ico_map07.png,경기도 용인시처인구 호동 517-2 통제실,http://10.32.28.204:8001/img/common/ico_map07.png,YI,OL
석유공사곡성지사,108,석유공사곡성지사,석유공사곡성지사,R,127.12,35.14,http://10.32.28.204:8001/img/common/ico_map07.png,http://10.32.28.204:8001/img/common/ico_map07.png,전남 곡성군겸면 괴정리 612 통제실,http://10.32.28.204:8001/img/common/ico_map07.png,GS,OL
석유공사동해지사,109,석유공사동해지사,석유공사동해지사,R,129.08,37.5,http://10.32.28.204:8001/img/common/ico_map07.png,http://10.32.28.204:8001/img/common/ico_map07.png,강원도 동해시구호동 226 통제실,http://10.32.28.204:8001/img/common/ico_map07.png,DH,OL
목포시청,110,목포시청,목포시청,R,126.392209,34.81187,http://10.32.28.204:8001/img/common/ico_map01.png,http://10.32.28.204:8001/img/common/ico_map01.png,전남 목포시용당동1188-2,http://10.32.28.204:8001/img/common/ico_map01.png,MP,JN
화순군청,111,화순군청,화순군청,R,126.986,35.064,http://10.32.28.204:8001/img/common/ico_map01.png,http://10.32.28.204:8001/img/common/ico_map01.png,전남 화순군화순읍동헌길23,http://10.32.28.204:8001/img/common/ico_map01.png,HS,JN
인제군청,112,인제군청,인제군청,R,128.170696,38.06949,http://10.32.28.204:8001/img/common/ico_map01.png,http://10.32.28.204:8001/img/common/ico_map01.png,강원도 인제군인제읍인제로197번길8,http://10.32.28.204:8001/img/common/ico_map01.png,IJ,GW
영월(군청),113,영월(군청),영월(군청),R,128.475555,37.162095,http://10.32.28.204:8001/img/common/ico_map07.png,http://10.32.28.204:8001/img/common/ico_map07.png,강원도 영열군영월읍 하송리 242,http://10.32.28.204:8001/img/common/ico_map07.png,YO,GS
제천시청,114,제천시청,제천시청,R,128.191088,37.1329472,http://10.32.28.204:8001/img/common/ico_map01.png,http://10.32.28.204:8001/img/common/ico_map01.png,충북 제천시내토로295(천남동),http://10.32.28.204:8001/img/common/ico_map01.png,JC,CP
사천(시청),115,사천(시청),사천(시청),R,128.132566,35.08683,http://10.32.28.204:8001/img/common/ico_map07.png,http://10.32.28.204:8001/img/common/ico_map07.png,경남 사천시용현면 덕곡리 501,http://10.32.28.204:8001/img/common/ico_map07.png,SA,GS
장림?,116,장림?,장림?,R,128.955078,35.07869,http://10.32.28.204:8001/img/common/ico_map07.png,http://10.32.28.204:8001/img/common/ico_map07.png,null,http://10.32.28.204:8001/img/common/ico_map07.png,JA,GS
한전원전연료(주),117,한전원전연료(주),한전원전연료(주),R,127.223868,36.256908,http://10.32.28.204:8001/img/common/ico_map09.png,http://10.32.28.204:8001/img/common/ico_map09.png,대전광역시 유성구대덕대로989번길242(대진동),http://10.32.28.204:8001/img/common/ico_map09.png,N1,NF
광주시청,118,광주시청,광주시청,R,127.2549,37.4291,http://10.32.28.204:8001/img/common/ico_map01.png,http://10.32.28.204:8001/img/common/ico_map01.png,경기도 광주시행정타운로50(송정동570),http://10.32.28.204:8001/img/common/ico_map01.png,GJ,GK
웅상,119,웅상,웅상,R,129.157816,35.415116,http://10.32.28.204:8001/img/common/ico_map07.png,http://10.32.28.204:8001/img/common/ico_map07.png,null,http://10.32.28.204:8001/img/common/ico_map07.png,US,GS
한전원전연료(주),120,한전원전연료(주),한전원전연료(주),R,127.223868,36.256908,http://10.32.28.204:8001/img/common/ico_map09.png,http://10.32.28.204:8001/img/common/ico_map09.png,대전광역시 유성구대덕대로989번길242(대진동),http://10.32.28.204:8001/img/common/ico_map09.png,N2,NF
평택기지,121,평택기지,평택기지,R,126.7922,37.1,http://10.32.28.204:8001/img/common/ico_map07.png,http://10.32.28.204:8001/img/common/ico_map07.png,경기도 평택시포성읍 원정리,http://10.32.28.204:8001/img/common/ico_map07.png,PT,GS
인천기지,122,인천기지,인천기지,R,126.6005,37.3535,http://10.32.28.204:8001/img/common/ico_map07.png,http://10.32.28.204:8001/img/common/ico_map07.png,인천광역시 연수구동춘동,http://10.32.28.204:8001/img/common/ico_map07.png,IC,GS
충남도청,123,충남도청,충남도청,R,126.67,36.65,http://10.32.28.204:8001/img/common/ico_map01.png,http://10.32.28.204:8001/img/common/ico_map01.png,충남 홍성군홍북면신경리455-44,http://10.32.28.204:8001/img/common/ico_map01.png,CN,CN
공주대학교,124,공주대학교,공주대학교,R,127.14,36.46,http://10.32.28.204:8001/img/common/ico_map02.png,http://10.32.28.204:8001/img/common/ico_map02.png,충남 공주시공주대학로56,http://10.32.28.204:8001/img/common/ico_map02.png,GG,AC
통영기지,125,통영기지,통영기지,R,128.4146,34.9502,http://10.32.28.204:8001/img/common/ico_map07.png,http://10.32.28.204:8001/img/common/ico_map07.png,경남 통영시광도면 안정리 1179,http://10.32.28.204:8001/img/common/ico_map07.png,TY,GS
창원(시청)?,126,창원(시청)?,창원(시청)?,R,128.63,35.24,http://10.32.28.204:8001/img/common/ico_map07.png,http://10.32.28.204:8001/img/common/ico_map07.png,경남 창원시의창구 용호동 1,http://10.32.28.204:8001/img/common/ico_map07.png,CW,GS
남동,127,남동,남동,R,126.7,37.39,http://10.32.28.204:8001/img/common/ico_map07.png,http://10.32.28.204:8001/img/common/ico_map07.png,null,http://10.32.28.204:8001/img/common/ico_map07.png,ND,GS
용강?,128,용강?,용강?,R,129.22,35.86,http://10.32.28.204:8001/img/common/ico_map07.png,http://10.32.28.204:8001/img/common/ico_map07.png,null,http://10.32.28.204:8001/img/common/ico_map07.png,YG,GS
고척,129,고척,고척,R,126.86,37.49,http://10.32.28.204:8001/img/common/ico_map07.png,http://10.32.28.204:8001/img/common/ico_map07.png,null,http://10.32.28.204:8001/img/common/ico_map07.png,GC,GS
의정부(시청)?,130,의정부(시청)?,의정부(시청)?,R,127.04,37.76,http://10.32.28.204:8001/img/common/ico_map07.png,http://10.32.28.204:8001/img/common/ico_map07.png,경기도 의정부시의정부동 326-2,http://10.32.28.204:8001/img/common/ico_map07.png,EB,GS
청주(시청)?,131,청주(시청)?,청주(시청)?,R,127.45,36.65,http://10.32.28.204:8001/img/common/ico_map07.png,http://10.32.28.204:8001/img/common/ico_map07.png,충북 청주시상당구 북문로 3가 89-1,http://10.32.28.204:8001/img/common/ico_map07.png,CJ,GS
오산(시청)?,132,오산(시청)?,오산(시청)?,R,127.06,37.12,http://10.32.28.204:8001/img/common/ico_map07.png,http://10.32.28.204:8001/img/common/ico_map07.png,경기도 오산시오산동 915,http://10.32.28.204:8001/img/common/ico_map07.png,OS,GS
서산(시청),133,서산(시청),서산(시청),R,126.49,36.82,http://10.32.28.204:8001/img/common/ico_map07.png,http://10.32.28.204:8001/img/common/ico_map07.png,충남 서산시읍내동 492,http://10.32.28.204:8001/img/common/ico_map07.png,SS,GS
장등?,134,장등?,장등?,R,126.93,35.2,http://10.32.28.204:8001/img/common/ico_map07.png,http://10.32.28.204:8001/img/common/ico_map07.png,null,http://10.32.28.204:8001/img/common/ico_map07.png,JD,GS
관음,135,관음,관음,R,128.53,35.93,http://10.32.28.204:8001/img/common/ico_map07.png,http://10.32.28.204:8001/img/common/ico_map07.png,null,http://10.32.28.204:8001/img/common/ico_map07.png,GE,GS
장성(군청),136,장성(군청),장성(군청),R,126.77,35.33,http://10.32.28.204:8001/img/common/ico_map07.png,http://10.32.28.204:8001/img/common/ico_map07.png,전남 장성군장성읍 영천리 1061-2,http://10.32.28.204:8001/img/common/ico_map07.png,JS,GS
고성(군청),137,고성(군청),고성(군청),R,128.36,34.96,http://10.32.28.204:8001/img/common/ico_map07.png,http://10.32.28.204:8001/img/common/ico_map07.png,경상남도 고성군고성읍 성내리 198,http://10.32.28.204:8001/img/common/ico_map07.png,GS,GS
정읍(시청),138,정읍(시청),정읍(시청),R,126.84,35.6,http://10.32.28.204:8001/img/common/ico_map07.png,http://10.32.28.204:8001/img/common/ico_map07.png,전북 정읍시수성동 440-1,http://10.32.28.204:8001/img/common/ico_map07.png,JE,GS
홍천(군청),139,홍천(군청),홍천(군청),R,127.85,37.69,http://10.32.28.204:8001/img/common/ico_map07.png,http://10.32.28.204:8001/img/common/ico_map07.png,강원도 홍천군홍천읍 희망리 181,http://10.32.28.204:8001/img/common/ico_map07.png,HC,GS
대청댐,140,대청댐,대청댐,R,127.48107,36.47708,http://10.32.28.204:8001/img/common/ico_map05.png,http://10.32.28.204:8001/img/common/ico_map05.png,충북 청원군문의면덕유리629-10,http://10.32.28.204:8001/img/common/ico_map05.png,DC,KW
방화,141,방화,방화,R,126.822375,37.581893,http://10.32.28.204:8001/img/common/ico_map07.png,http://10.32.28.204:8001/img/common/ico_map07.png,null,http://10.32.28.204:8001/img/common/ico_map07.png,BA,GS
김제시청,142,김제시청,김제시청,R,126.524927,35.481315,http://10.32.28.204:8001/img/common/ico_map01.png,http://10.32.28.204:8001/img/common/ico_map01.png,전북 김제시서암동353(중앙로40),http://10.32.28.204:8001/img/common/ico_map01.png,GJ,JP
대치?,143,대치?,대치?,R,127.07808,37.499585,http://10.32.28.204:8001/img/common/ico_map07.png,http://10.32.28.204:8001/img/common/ico_map07.png,null,http://10.32.28.204:8001/img/common/ico_map07.png,DC,GS
교하?,144,교하?,교하?,R,126.721686,37.737678,http://10.32.28.204:8001/img/common/ico_map07.png,http://10.32.28.204:8001/img/common/ico_map07.png,null,http://10.32.28.204:8001/img/common/ico_map07.png,GY,GS
계룡(시청),145,계룡(시청),계룡(시청),R,127.247108,36.286056,http://10.32.28.204:8001/img/common/ico_map07.png,http://10.32.28.204:8001/img/common/ico_map07.png,충남 계룡시금암동 10,http://10.32.28.204:8001/img/common/ico_map07.png,GR,GS
조치원?,146,조치원?,조치원?,R,127.300101,36.58835,http://10.32.28.204:8001/img/common/ico_map07.png,http://10.32.28.204:8001/img/common/ico_map07.png,null,http://10.32.28.204:8001/img/common/ico_map07.png,CC,GS
안중?,147,안중?,안중?,R,126.943065,37.000858,http://10.32.28.204:8001/img/common/ico_map07.png,http://10.32.28.204:8001/img/common/ico_map07.png,null,http://10.32.28.204:8001/img/common/ico_map07.png,AN,GS
평촌?,148,평촌?,평촌?,R,126.96864,37.392615,http://10.32.28.204:8001/img/common/ico_map07.png,http://10.32.28.204:8001/img/common/ico_map07.png,null,http://10.32.28.204:8001/img/common/ico_map07.png,PC,GS
영종?,149,영종?,영종?,R,126.474485,37.495541,http://10.32.28.204:8001/img/common/ico_map07.png,http://10.32.28.204:8001/img/common/ico_map07.png,null,http://10.32.28.204:8001/img/common/ico_map07.png,YE,GS
군산(시청),150,군산(시청),군산(시청),R,126.798146,35.983541,http://10.32.28.204:8001/img/common/ico_map07.png,http://10.32.28.204:8001/img/common/ico_map07.png,전북 군산시조촌동 888,http://10.32.28.204:8001/img/common/ico_map07.png,GU,GS
보령(시청),151,보령(시청),보령(시청),R,126.488145,36.393387,http://10.32.28.204:8001/img/common/ico_map07.png,http://10.32.28.204:8001/img/common/ico_map07.png,충남 보령시명천동 269-4,http://10.32.28.204:8001/img/common/ico_map07.png,BO,GS
하남(시청),152,하남(시청),하남(시청),R,126.798,35.2,http://10.32.28.204:8001/img/common/ico_map07.png,http://10.32.28.204:8001/img/common/ico_map07.png,경기도 하남시신장동 520,http://10.32.28.204:8001/img/common/ico_map07.png,HA,GS
부곡,153,부곡,부곡,R,126.778785,36.961648,http://10.32.28.204:8001/img/common/ico_map07.png,http://10.32.28.204:8001/img/common/ico_map07.png,null,http://10.32.28.204:8001/img/common/ico_map07.png,BU,GS
순천(시청),154,순천(시청),순천(시청),R,127.547412,34.963728,http://10.32.28.204:8001/img/common/ico_map07.png,http://10.32.28.204:8001/img/common/ico_map07.png,전남 순천시장천동 53-1,http://10.32.28.204:8001/img/common/ico_map07.png,SU,GS
목포(시청),155,목포(시청),목포(시청),R,126.422358,34.842483,http://10.32.28.204:8001/img/common/ico_map07.png,http://10.32.28.204:8001/img/common/ico_map07.png,전남 목포시용당동 1188-2,http://10.32.28.204:8001/img/common/ico_map07.png,MO,GS
포항(시청),156,포항(시청),포항(시청),R,129.3117,36.004167,http://10.32.28.204:8001/img/common/ico_map07.png,http://10.32.28.204:8001/img/common/ico_map07.png,경북 포항시남구 대잠동 1001,http://10.32.28.204:8001/img/common/ico_map07.png,PH,GS
동김천?,157,동김천?,동김천?,R,128.141945,36.13288,http://10.32.28.204:8001/img/common/ico_map07.png,http://10.32.28.204:8001/img/common/ico_map07.png,null,http://10.32.28.204:8001/img/common/ico_map07.png,DG,GS
금호,158,금호,금호,R,128.905566,35.943688,http://10.32.28.204:8001/img/common/ico_map07.png,http://10.32.28.204:8001/img/common/ico_map07.png,null,http://10.32.28.204:8001/img/common/ico_map07.png,KH,GS
